{"type":"FeatureCollection","features":[{"type":"Feature","geometry":{"type":"Point","coordinates":[77.5945627,12.9715987]},"properties":{"datevisit":"2016-10-31","pagetitle":"MapTrack | Leads & Addresses from your Web Tr","postcode":"India","address":"Bengaluru, Karnataka, India","city":"Karnataka","type":"C"}},{"type":"Feature","geometry":{"type":"Point","coordinates":[77.5945627,12.9715987]},"properties":{"datevisit":"2016-10-31","pagetitle":"Let's Get Started | MapTrack","postcode":"India","address":"Bengaluru, Karnataka, India","city":"Karnataka","type":"C"}},{"type":"Feature","geometry":{"type":"Point","coordinates":[77.6738187,12.8512212]},"properties":{"datevisit":"2016-10-31","pagetitle":"MapTrack | Leads & Addresses from your Web Tr","postcode":"India","address":"Anekal Bangaluru, Karnataka, India","city":"Karnataka","type":"C"}},{"type":"Feature","geometry":{"type":"Point","coordinates":[77.6738187,12.8512229]},"properties":{"datevisit":"2016-10-31","pagetitle":"MapTrack | Leads & Addresses from your Web Tr","postcode":"India","address":"Anekal Bangaluru, Karnataka, India","city":"Karnataka","type":"C"}},{"type":"Feature","geometry":{"type":"Point","coordinates":[-95.3991907,29.6849782]},"properties":{"datevisit":"2016-10-31","pagetitle":"MapTrack | Leads & Addresses from your Web Tr","postcode":"77054","address":"2100 Holly Hall St, Houston, Texas 77054, United States","city":"Houston","type":"C"}},{"type":"Feature","geometry":{"type":"Point","coordinates":[77.689893,12.8273114]},"properties":{"datevisit":"2016-10-31","pagetitle":"MapTrack | Leads & Addresses from your Web Tr","postcode":"India","address":"Anekal Bangaluru, Karnataka, India","city":"Karnataka","type":"C"}},{"type":"Feature","geometry":{"type":"Point","coordinates":[77.689893,12.8273114]},"properties":{"datevisit":"2016-10-31","pagetitle":"MapTrack | Leads & Addresses from your Web Tr","postcode":"India","address":"Anekal Bangaluru, Karnataka, India","city":"Karnataka","type":"C"}},{"type":"Feature","geometry":{"type":"Point","coordinates":[77.5945627,12.9715987]},"properties":{"datevisit":"2016-11-04","pagetitle":"MapTrack | Leads & Addresses from your Web Tr","postcode":"India","address":"Bengaluru, Karnataka, India","city":"Karnataka","type":"C"}},{"type":"Feature","geometry":{"type":"Point","coordinates":[77.5945627,12.9715987]},"properties":{"datevisit":"2016-11-04","pagetitle":"Let's Get Started | MapTrack","postcode":"India","address":"Bengaluru, Karnataka, India","city":"Karnataka","type":"C"}},{"type":"Feature","geometry":{"type":"Point","coordinates":[77.5945627,12.9715987]},"properties":{"datevisit":"2016-11-04","pagetitle":"MapTrack | Leads & Addresses from your Web Tr","postcode":"India","address":"Bengaluru, Karnataka, India","city":"Karnataka","type":"C"}},{"type":"Feature","geometry":{"type":"Point","coordinates":[77.5945627,12.9715987]},"properties":{"datevisit":"2016-11-04","pagetitle":"MapTrack | Leads & Addresses from your Web Tr","postcode":"India","address":"Bengaluru, Karnataka, India","city":"Karnataka","type":"C"}},{"type":"Feature","geometry":{"type":"Point","coordinates":[77.5945627,12.9715987]},"properties":{"datevisit":"2016-11-04","pagetitle":"Let's Get Started | MapTrack","postcode":"India","address":"Bengaluru, Karnataka, India","city":"Karnataka","type":"C"}},{"type":"Feature","geometry":{"type":"Point","coordinates":[77.5945627,12.9715987]},"properties":{"datevisit":"2016-11-04","pagetitle":"Let's Get Started | MapTrack","postcode":"India","address":"Bengaluru, Karnataka, India","city":"Karnataka","type":"C"}}]}